time,temperature,cpu_temp,magnet_x,magnet_y,magnet_z,gyro_pitch,gyro_roll,gyro_yaw,accel_pitch,accel_roll,accel_yaw,gyro_x,gyro_y,gyro_z,accel_x,accel_y,accel_z,lat,long,elev
1650247358307998715,34.01346969604492,45.764,36.848079681396484,8.368953704833984,13.836871147155762,328.8528893846378,66.10382071200152,278.024752600424,328.8085068154111,66.09230501306088,278.0244862230463,-0.0006456263363361359,-0.0011662095785140991,0.0004440024495124817,0.02025200054049492,0.030499998480081558,0.015371999703347683,-12.036471922468996,27.760387698828275,417.4133012576533
1650247358426193497,34.066810607910156,45.277,36.87495803833008,8.637431144714355,13.68758487701416,328.80395790942384,66.06889795477524,278.0261801099605,328.8045145698412,66.0600255390434,278.02618694014967,0.0017976723611354828,0.0006662830710411072,0.0010547824203968048,0.020495999604463577,0.029279999434947968,0.013907999731600285,-12.030981222004733,27.764507014306226,417.41158130041487
1650247358561119362,34.04903030395508,44.79,36.82932662963867,8.857593536376953,13.399971961975098,328.8234854202609,66.07576912508027,278.02397395885856,328.81183653263145,66.09670365488637,278.02410373245283,-0.002477932721376419,0.0018878057599067688,-0.00016715936362743378,0.020983999595046043,0.03171999752521515,0.011711999773979187,-12.025018518289766,27.76898016807668,417.4097138565292
1650247358692111045,34.04903030395508,44.79,36.649986267089844,8.781144142150879,13.646230697631836,328.7690078314409,66.30419797168219,278.03029188384085,328.8778366505813,66.1506758097078,278.03842663914236,0.0008820705115795135,-0.0008614286780357361,-0.0004726015031337738,0.02122800052165985,0.03294000029563904,0.016103999689221382,-12.01823603356147,27.77406796447138,417.4075901333464
1650247358810926004,33.995689392089844,44.303,36.77713394165039,8.864054679870605,13.562779426574707,328.9142278984791,66.02666689513705,278.0381807523322,328.90152033152833,66.00438681806448,278.0380304881705,0.002103511244058609,5.48437237739563e-05,0.0010542944073677063,0.020739998668432236,0.030988000333309174,0.01512799970805645,-12.011654999447588,27.779004291437516,417.4055299621003
1650247358937842581,33.94234848022461,45.277,36.57522201538086,8.904753684997559,13.40768051147461,328.8627863287452,66.04249927363314,278.04051667702834,328.79871573923583,66.02115493247685,278.0398336581113,-0.0015611536800861359,-0.0011667385697364807,0.0016647931188344955,0.01878799870610237,0.032207999378442764,0.01659199967980385,-12.005683399878947,27.78348319010146,417.40366097638514
1650247359069054521,34.04903030395508,44.79,36.55680465698242,8.66289234161377,13.243228912353516,328.8479682333408,66.06354991665512,278.0428252809678,328.8869208021774,66.02548527241063,278.0435629413982,0.0014930814504623413,0.001276656985282898,0.00044295378029346466,0.020739998668432236,0.031231999397277832,0.013663999736309052,-11.999299706610612,27.788270855908692,417.40166343912074
1650247359188729689,34.04903030395508,44.303,36.700706481933594,8.792486190795898,13.696807861328125,328.93038471096077,66.03388640508976,278.04368588480327,328.9419892023606,65.98897108110775,278.0439454319917,0.0005767196416854858,0.0012764260172843933,-0.0010838843882083893,0.019276000559329987,0.030743999406695366,0.015859998762607574,-11.992710154200216,27.793212569486332,417.3996019468515
1650247359315648859,33.977909088134766,44.79,36.693111419677734,8.826621055603027,14.095603942871094,328.9456570139449,65.80467891692247,278.0430984885346,328.89773640672814,65.7541969887669,278.04188271486237,-0.0009505040943622589,-0.0005560964345932007,-0.0007782503962516785,0.02000799961388111,0.030988000333309174,0.012443999759852886,-11.9866971475675,27.797721609108073,417.39772123120946
1650247359446783059,34.04903030395508,44.303,36.63119888305664,8.663859367370605,13.776847839355469,328.98265614867887,65.56886663582777,278.0445806395845,328.97462726130954,65.49432195122625,278.0442869414502,0.002714443951845169,-0.0008615478873252869,-0.0013888664543628693,0.01756799966096878,0.030743999406695366,0.007319999858736992,-11.980317358970957,27.802505374530018,417.39572622184517
1650247359565718719,34.01346969604492,45.277,36.88788986206055,8.824031829833984,13.919118881225586,328.9974366780428,65.83044922066092,278.0339733558035,329.0041644143753,65.82702729588675,278.0339733558035,0.0005764029920101166,0.0015819147229194641,-0.00047275610268116,0.021715998649597168,0.03147599846124649,0.01268799975514412,-11.973726926688064,27.807446744641187,417.39366580355585
1650247359689364013,34.084590911865234,44.79,36.71641540527344,8.771106719970703,14.003341674804688,329.0177803964857,65.81629706870066,278.0360360729328,329.0302796426668,65.74648570519396,278.03648003522886,-0.0024774186313152313,0.0009708181023597717,0.0007489155977964401,0.021715998649597168,0.0302559994161129,0.013419999741017818,-11.967573897955411,27.812059844570417,417.3917425570828
1650247359812124542,34.03125,45.277,36.679901123046875,8.319501876831055,14.04389762878418,328.9772705445183,65.65664822704078,278.03361135577745,328.98912775291745,65.75408770574019,278.03303078969805,0.0014926008880138397,0.0015816092491149902,-0.002305109053850174,0.021715998649597168,0.0302559994161129,0.017324000597000122,-11.961534209932513,27.8165876750229,417.38985513464314
1650247359935129494,33.995689392089844,43.816,36.79767608642578,8.536759376525879,14.129633903503418,329.006503754166,65.53384825595312,278.03623414841877,328.9886496396756,65.72697185473524,278.0379621862788,-0.00034028664231300354,5.43743371963501e-05,-0.00047221407294273376,0.020739998668432236,0.029767999425530434,0.01439599972218275,-11.95536470059526,27.821212528560896,417.3879275489901
1650247360062397585,34.03125,43.816,36.691890716552734,8.6895751953125,13.879996299743652,329.00117620661337,65.65684630252672,278.03900037503263,329.0242895667647,65.6007704494409,278.0396424128146,-0.0018676631152629852,0.0006647855043411255,0.0013602208346128464,0.022204000502824783,0.03001200035214424,0.007319999858736992,-11.949181571351255,27.82584728667458,417.3859961200581
1650247360193321307,34.084590911865234,44.79,36.796669006347656,8.625761985778809,14.119749069213867,328.8976032180393,65.94788749325012,278.0480981870071,328.9194905592346,65.94433579488172,278.0481528285204,-0.0003404878079891205,5.396455526351929e-05,-0.001999262720346451,0.02025200054049492,0.03147599846124649,0.016103999689221382,-11.942785275013229,27.830641509408085,417.3839985381416
1650247360312144469,33.995689392089844,44.303,36.73398208618164,8.738262176513672,14.053277969360352,328.90797827538853,65.9126573775112,278.0522372816441,328.8708152161145,65.84880193896075,278.05104199853935,0.004851091653108597,0.0015805363655090332,0.0004443228244781494,0.021715998649597168,0.030988000333309174,0.013419999741017818,-11.936204803608211,27.835573436139033,417.38194389866413
1650247360439205582,34.066810607910156,44.303,36.510154724121094,8.998664855957031,14.089373588562012,328.901325671137,65.81570967243204,278.0526266024268,328.93030274869074,65.73548910063023,278.05377407420735,0.0008793734014034271,0.001885831356048584,-0.0001661386340856552,0.01903199963271618,0.029767999425530434,0.01268799975514412,-11.930231525141851,27.84004998516385,417.38007924950955
1650247360570143267,34.03125,44.303,36.69181442260742,8.773030281066895,14.040361404418945,328.9216796348636,65.7209407976981,278.0521963005091,328.9456911648908,65.65352000040092,278.0530090930203,0.0008797012269496918,0.0006643161177635193,-0.0026093758642673492,0.019276000559329987,0.029279999434947968,0.01439599972218275,-11.923845217986157,27.844835755185567,417.3780860932825
1650247360693095312,34.084590911865234,44.79,37.010990142822266,8.793261528015137,14.073880195617676,328.92182989902534,65.72925996810719,278.05695694236056,328.94904137267866,65.70761509862741,278.0572506404949,-0.0012586191296577454,-0.0011683329939842224,-0.0010820161551237106,0.019519999623298645,0.030988000333309174,0.013907999731600285,-11.917257736994083,27.84977194025024,417.37603061240975
1650247360816036412,33.977909088134766,45.277,36.90898513793945,8.614775657653809,14.00943660736084,328.9502332406888,65.76673721608304,278.05315935718204,328.89664016136635,65.69801868284355,278.0512810551603,-0.0006482265889644623,0.0015805885195732117,0.0031939297914505005,0.01878799870610237,0.030988000333309174,0.01439599972218275,-11.911081384245112,27.854399741385045,417.3741038408587
1650247360942968268,34.03125,43.816,36.837310791015625,8.478781700134277,13.998629570007324,328.9714478082509,65.75446336614453,278.0491568663284,328.9929731494202,65.59022463736241,278.05091222494514,-0.0012586116790771484,-0.0005572289228439331,0.0013610944151878357,0.02025200054049492,0.0302559994161129,0.01512799970805645,-11.904902318519825,27.859029271435634,417.37217663521784
1650247361076888056,34.04903030395508,44.303,36.865352630615234,8.755996704101562,13.4140625,329.02667671787964,65.37081164046492,278.05581630076915,329.0179784719716,65.42255032342777,278.05604852720097,0.0005738697946071625,0.000664152204990387,-0.0026093032211065292,0.02122800052165985,0.0302559994161129,0.01195599976927042,-11.89818069635687,27.864064955146713,417.37008067845954
1650247361208214958,34.03125,44.79,37.1539306640625,8.877397537231445,13.704849243164062,328.94838567451836,65.36953439509013,278.0526812439401,328.9630193548151,65.33071159984777,278.05295445150693,-0.0012585818767547607,5.3256750106811523e-05,-0.0013875309377908707,0.02025200054049492,0.0302559994161129,0.015615999698638916,-11.891788579548566,27.868853447873743,417.3680879218134
1650247361326956881,33.995689392089844,44.303,37.09092712402344,8.99789810180664,14.002812385559082,328.99902128193025,65.15943094603136,278.05570701774246,329.00824203730974,65.12860630230709,278.05584362152587,0.0014899633824825287,-0.0011683478951454163,-0.00047113746404647827,0.020983999595046043,0.03001200035214424,0.014639999717473984,-11.885186474872226,27.873798906916722,417.3660301643982
1650247361454017513,34.12015151977539,44.79,36.75011444091797,9.024823188781738,13.693928718566895,329.0196450381291,64.91889217403103,278.06033788599973,328.98896724347196,64.99015836783094,278.06142388607776,-0.003091558814048767,5.3279101848602295e-05,-0.0004711207002401352,0.020495999604463577,0.03001200035214424,0.01512799970805645,-11.879219242635044,27.878268502336365,417.3641706905111
1650247361585235952,33.995689392089844,45.764,36.81696319580078,8.80826473236084,13.598691940307617,328.9326967299948,64.8649610003446,278.0634934333963,328.9731792612055,64.80657654331934,278.06466139574434,-0.0012592263519763947,-0.002695489674806595,-0.0010816603899002075,0.02025200054049492,0.030988000333309174,0.013907999731600285,-11.872831889559164,27.883052464934046,417.3621807274029
1650247361704104374,34.084590911865234,44.79,36.7775993347168,8.713542938232422,13.715506553649902,328.94895258021944,64.92079096662029,278.06472969763604,328.9677731664774,64.87293866129518,278.0651804901213,0.0008789673447608948,0.0009696036577224731,-0.0016922783106565475,0.019763998687267303,0.030499998480081558,0.018300000578165054,-11.866234488404524,27.887993408465814,417.3601257872607
1650247361831376706,34.03125,44.79,36.82010269165039,8.67916202545166,13.85485553741455,328.949014051922,64.81251197770807,278.0721063019397,328.94573897621495,64.83360360186508,278.07213362269636,-0.0006478950381278992,0.0006641596555709839,-0.00016555748879909515,0.019276000559329987,0.029523998498916626,0.014151999726891518,-11.860257662956403,27.892469290971174,417.35826454846404
1650247361962340354,34.04903030395508,44.303,36.78934860229492,8.70666790008545,14.029358863830566,328.9630466755718,64.82618601642645,278.0709861509158,328.93846140965434,64.8318004319242,278.0710544528075,0.001490175724029541,0.0015803799033164978,0.00013953447341918945,0.019763998687267303,0.0302559994161129,0.014639999717473984,-11.853859388798808,27.897260471444998,417.3562724945837
1650247362085121772,33.92456817626953,44.79,36.692657470703125,8.756820678710938,14.256674766540527,328.92674763522774,64.93813964711212,278.0714984151035,328.92084635178486,65.00479546322228,278.0716896604003,0.001184910535812378,0.0006642714142799377,-0.002608904615044594,0.020739998668432236,0.029523998498916626,0.013175999745726585,-11.84727569138065,27.90219016304816,417.3542231725867
1650247362208187520,34.10237121582031,44.79,36.65118408203125,8.75847339630127,13.90564250946045,328.9186948421963,65.00126425542138,278.07457200023003,328.9129199172531,65.10511045156225,278.0748793587427,0.0008791089057922363,0.0009696781635284424,-0.0007764436304569244,0.021715998649597168,0.0287919994443655,0.013907999731600285,-11.841098320677219,27.906815296614912,417.35230075496224
1650247362335024118,34.04903030395508,44.79,36.76592254638672,8.679941177368164,13.917902946472168,328.81935657090764,65.04878188147715,278.07092467921325,328.8272386092098,65.02363995514234,278.0710134716725,-3.750622272491455e-05,-0.00025186687707901,-0.00016522593796253204,0.01878799870610237,0.030499998480081558,0.014883999712765217,-11.834912907717321,27.91144614936153,417.35037624799793
1650247362468359786,34.066810607910156,45.764,36.81135559082031,8.493535995483398,13.97813892364502,328.84584404450896,64.97515244222441,278.07265271707325,328.8588521397832,64.96250976207072,278.0727346793433,0.002099897712469101,0.0018859952688217163,0.0010564196854829788,0.02000799961388111,0.03269600123167038,0.013907999731600285,-11.828404205953442,27.916318713411737,417.348351600898
1650247362595166459,34.03125,45.764,36.77702713012695,8.686933517456055,13.810440063476562,328.9229056538196,64.93044885410669,278.07417584925815,328.9447042025557,64.9003823613803,278.07449686814914,-0.004008200019598007,0.0018857717514038086,0.0010562818497419357,0.02000799961388111,0.029523998498916626,0.01659199967980385,-11.821831640861431,27.92123874763531,417.34630755293574
1650247362722103148,34.04903030395508,45.277,36.548683166503906,9.019322395324707,13.810897827148438,328.98548726208986,64.73128736809828,278.0747427549593,329.04304868132016,64.65217328694203,278.0769898871962,0.002405598759651184,0.0009693950414657593,0.0019724946469068527,0.018300000578165054,0.030743999406695366,0.01512799970805645,-11.81545842621638,27.92600922833931,417.3443259485978
1650247362844957788,33.94234848022461,44.79,36.49259948730469,8.801557540893555,13.597596168518066,329.19105205044514,64.52729693834668,278.0782124910577,329.1819644837544,64.62537845482807,278.0786701137321,-0.001259680837392807,0.0003585144877433777,0.0004454515874385834,0.021959999576210976,0.0302559994161129,0.013907999731600285,-11.80907600624908,27.930786278467636,417.342341922441
1650247362971981235,34.10237121582031,44.303,36.60801696777344,8.616000175476074,14.067344665527344,329.0963992889271,64.72796789616166,278.08302094423334,329.05057896488006,64.71333763095949,278.0826726045857,0.0005727000534534454,0.0015799403190612793,-0.000470675528049469,0.01903199963271618,0.02903600037097931,0.01634800061583519,-11.80289817895105,27.935409891401576,417.3404219153325
1650247363102952402,34.01346969604492,44.303,36.413719177246094,8.805601119995117,14.029250144958496,329.1466455755563,64.65405158896378,278.08637456711585,329.1372301597854,64.67905691151519,278.08649068033174,-3.781169652938843e-05,0.0031064897775650024,0.001056348904967308,0.02000799961388111,0.030988000333309174,0.01195599976927042,-11.79651122870326,27.940189700276516,417.33843734907765
1650247363225793375,33.977909088134766,45.764,36.31894302368164,8.601781845092773,14.338829040527344,329.23306112893533,64.72483966952178,278.08476947266087,329.2404104124822,64.6631357405599,278.0849880387143,-3.86163592338562e-05,-0.0011694654822349548,-0.0007762815803289413,0.01903199963271618,0.03245199844241142,0.008295999839901924,-11.789925956241598,27.94511759162851,417.33639162197926
1650247363348649922,34.01346969604492,44.79,36.82487106323242,8.729599952697754,14.183600425720215,329.26895035792916,64.82840582790669,278.0843255103648,329.2706442448433,64.86353349080807,278.08428452922976,0.0033205747604370117,0.0018845126032829285,-0.00047088228166103363,0.020495999604463577,0.029767999425530434,0.013419999741017818,-11.783748780649475,27.949739785907816,417.3344730975642
1650247363475470206,33.889007568359375,44.303,36.695735931396484,8.816691398620605,13.903510093688965,329.3196371917598,64.96020115813126,278.0855276236587,329.27475943381825,65.0049730481407,278.0865384916559,-0.0018715783953666687,-0.0005595535039901733,-0.0007764007896184921,0.02000799961388111,0.03001200035214424,0.013419999741017818,-11.77757025010374,27.954362694054602,417.33255456548954
1650247363602817131,34.066810607910156,44.303,36.68046569824219,8.855006217956543,13.816316604614258,329.39116976293735,64.93510704312064,278.09392875633785,329.43612948314893,64.82003884617343,278.0964695867091,-0.0015664584934711456,0.0009673014283180237,-0.0016925279051065445,0.02000799961388111,0.030988000333309174,0.008295999839901924,-11.77119455129974,27.95913281333597,417.33057524279616
1650247363725678567,34.084590911865234,43.816,36.72892761230469,8.836992263793945,14.254776954650879,329.31049156846115,65.31308971178915,278.10736373843525,329.2758829999367,65.3989930009804,278.10885271967436,0.00362570583820343,0.0009672790765762329,0.0004454944282770157,0.018543999642133713,0.031231999397277832,0.01512799970805645,-11.76478973296039,27.9639243977585,417.3285873231288
1650247363847925809,34.084590911865234,44.79,36.578330993652344,8.355916976928711,13.987692832946777,329.3959713859239,65.26397382146757,278.1137841162551,329.3403190045666,65.38554435850463,278.1171923806509,-3.9190053939819336e-05,5.090981721878052e-05,-0.0001653805375099182,0.020495999604463577,0.03171999752521515,0.013663999736309052,-11.758479149093377,27.968645168578888,417.32662908627384
1650247363970716672,33.92456817626953,44.303,36.77876663208008,8.786698341369629,14.281129837036133,329.2705998486137,65.45147617456277,278.1207918903435,329.2568882438549,65.48063425212955,278.12100362620777,0.0005718469619750977,-0.0005602091550827026,-0.0007761251181364059,0.019763998687267303,0.031231999397277832,0.01195599976927042,-11.752489906441964,27.97312526427886,417.3247709636724
1650247364101583951,34.066810607910156,43.816,36.990352630615234,8.742606163024902,14.059762954711914,329.23350167613677,65.56810165464074,278.1217071356923,329.2526979227991,65.66029554805756,278.1208328714785,-0.001260962337255478,-0.0005602315068244934,0.0019727610051631927,0.020983999595046043,0.030988000333309174,0.013907999731600285,-11.746288452671001,27.977763802768518,417.322847413383
1650247364220459354,34.12015151977539,45.764,37.16954040527344,8.493659973144531,14.10232925415039,329.229533336229,65.61594712977667,278.12087385261356,329.229533336229,65.61594712977667,278.12087385261356,0.0014880970120429993,-0.0005597919225692749,-0.0016923118382692337,0.020983999595046043,0.03147599846124649,0.013663999736309052,-11.739707513374508,27.982685857982993,417.3208066108818
1650247364379812096,34.13793182373047,44.303,36.86712646484375,8.729750633239746,13.780303001403809,329.21820205239595,65.57152357941492,278.1252383434932,329.17297936990127,65.73438260998469,278.1289471362125,-3.8821250200271606e-05,-0.001476246863603592,-0.0023028235882520676,0.02025200054049492,0.030499998480081558,0.01439599972218275,-11.733593765396861,27.987258185026082,417.3189111085701
1650247364506724601,33.977909088134766,45.277,36.964927673339844,8.562187194824219,13.47311019897461,329.13987344299426,65.68626392728196,278.1293501173735,329.1312981404913,65.69749958846663,278.1293979286977,-0.0024822913110256195,5.096942186355591e-05,0.0013622567057609558,0.020495999604463577,0.029767999425530434,0.013175999745726585,-11.725714735675925,27.993150293335816,417.31646889673306
1650247364641704004,34.04903030395508,45.277,36.945438385009766,8.327749252319336,13.177014350891113,329.07471002321773,65.53201776525556,278.1331340421737,329.0766771176987,65.50166440458402,278.13318185349794,-0.0006498619914054871,-0.0011708885431289673,-0.0026079118251800537,0.019519999623298645,0.030743999406695366,0.011711999773979187,-11.719332710185187,27.997922553987173,417.31449119471284
1650247364768479548,34.03125,44.79,36.82312774658203,8.345830917358398,13.840608596801758,329.0964675908188,65.48083232761549,278.13536751403234,329.0968944776419,65.42945564467864,278.1353880045998,-3.9130449295043945e-05,0.0012723207473754883,-0.001080397516489029,0.020983999595046043,0.0302559994161129,0.012199999764561653,-11.712543807756042,28.002998714194124,417.3123878916145
1650247364891301985,34.084590911865234,44.79,36.89460754394531,8.986382484436035,14.223308563232422,329.12542759289965,65.44666772138707,278.14094094839504,329.151191066449,65.39533884977443,278.1415898163662,-0.0015658363699913025,0.0015775486826896667,-0.0007747672498226166,0.02000799961388111,0.030988000333309174,0.01195599976927042,-11.706166547295844,28.007766756145156,417.31041257634575
1650247365018531300,33.995689392089844,44.303,36.94969940185547,8.957980155944824,13.995532035827637,329.19410514500413,65.52026983988314,278.1420542692298,329.1576148593633,65.42722900300922,278.14034672193725,0.0020987801253795624,0.000661209225654602,0.001973656937479973,0.02122800052165985,0.029523998498916626,0.013419999741017818,-11.699990866556345,28.012383782095213,417.30850011924775
1650247365153067358,34.03125,44.303,36.85047149658203,8.829623222351074,13.791630744934082,329.1271727062326,65.47366062898696,278.1445267977093,329.0931788547334,65.42569904063514,278.1437071750089,0.003320012241601944,0.0012717172503471375,0.0013627056032419205,0.02000799961388111,0.032207999378442764,0.011711999773979187,-11.693590266354887,28.017168647318435,417.3065184464223
1650247365277484568,34.04903030395508,44.79,36.6612434387207,8.730113983154297,13.84565544128418,329.11260049763837,65.59870090212239,278.14544887324723,329.1100391766996,65.61410980888994,278.14546936381475,0.0005705691874027252,0.0006602182984352112,-0.0004696417599916458,0.02000799961388111,0.03147599846124649,0.01512799970805645,-11.686695447071543,28.022322616475115,417.3043842566726
1650247365392442734,33.977909088134766,44.303,36.954654693603516,8.869976997375488,13.870392799377441,329.12566323442604,65.49536697016927,278.146603175217,329.11201310136977,65.51705965097324,278.14674660918956,0.0008759647607803345,0.0006597116589546204,0.0001414753496646881,0.02000799961388111,0.029523998498916626,0.013419999741017818,-11.68059762308696,28.026880512703954,417.3024971946217
1650247365518895950,34.03125,45.277,36.9673957824707,8.492298126220703,14.076687812805176,329.04334237945443,65.4891856489704,278.1433929863071,329.0862906089555,65.4364156074429,278.1445063071418,0.00026537105441093445,0.0018812716007232666,-0.0016908477991819382,0.020983999595046043,0.030743999406695366,0.014151999726891518,-11.674785751090921,28.031224401259966,417.30069899997295
1650247365636990310,34.13793182373047,44.79,36.915889739990234,8.555500984191895,14.217217445373535,329.1286207063366,65.44710485349395,278.1409887597192,329.13092248008695,65.47954142186235,278.14094094839504,0.0008758939802646637,0.0024919435381889343,-0.001384887844324112,0.01878799870610237,0.03147599846124649,0.01512799970805645,-11.668425483496028,28.035977868765162,417.2987315514002
1650247365755363962,34.066810607910156,43.816,37.025238037109375,8.61760139465332,13.865753173828125,329.14542297169487,65.44893534419153,278.1433041938479,329.0792555141104,65.50607670678785,278.14521664681547,-0.0006513260304927826,0.0012697279453277588,-0.0004686489701271057,0.02000799961388111,0.0302559994161129,0.013907999731600285,-11.662485469317653,28.04041696802286,417.29689449786326
1650247365881749328,34.066810607910156,44.303,36.90485382080078,8.658249855041504,13.94993782043457,328.99845096113455,65.66722819006513,278.1497518924244,329.05085217244687,65.67128532243211,278.14964260939763,0.0020974837243556976,0.00035330653190612793,-0.0001630205661058426,0.01878799870610237,0.031964000314474106,0.014639999717473984,-11.656531382170813,28.04486630937422,417.2950534761264
1650247366007843493,34.03125,43.816,36.641422271728516,8.567395210266113,13.755495071411133,329.1043325536481,65.55432516308483,278.14813313759106,329.11279174293514,65.52608233086681,278.148249250807,0.0008758716285228729,-0.0002576783299446106,-0.002300696447491646,0.020983999595046043,0.030743999406695366,0.013419999741017818,-11.650173436058893,28.049617140778142,417.2930880046042
1650247366142176351,33.995689392089844,45.277,36.52579879760742,8.446675300598145,14.003010749816895,329.1131605731503,65.5377482939692,278.14720423186395,329.17409952092515,65.52138316071785,278.1477096658625,-0.0021781325340270996,-0.0008685588836669922,0.0016695857048034668,0.019763998687267303,0.03001200035214424,0.015859998762607574,-11.643825951110186,28.054359842606893,417.2911262045344
1650247366276644225,34.03125,44.303,36.545379638671875,8.35068416595459,14.213667869567871,329.19351091854634,65.51149987698884,278.1531328360635,329.2150943163236,65.5097103674263,278.153153326631,0.0033194944262504578,-0.0008685290813446045,-0.0004686843603849411,0.020495999604463577,0.02903600037097931,0.013663999736309052,-11.63707372653525,28.05940461428141,417.2890397926127
1650247366411172413,34.04903030395508,44.79,36.599056243896484,8.480177879333496,14.495920181274414,329.124478196605,65.45238458972239,278.1496835905327,329.1618085955137,65.4806888936429,278.1491576659666,0.002403341233730316,0.0006588473916053772,-0.00016351789236068726,0.019519999623298645,0.030499998480081558,0.014639999717473984,-11.63031011864406,28.064457536750204,417.28695035934504
1650247366541498423,33.995689392089844,44.79,36.52333450317383,8.511375427246094,13.808072090148926,329.1895698993952,65.56388059773367,278.14900057161566,329.22275437347776,65.59860527947401,278.1484268357254,-0.0009553432464599609,0.0009643584489822388,-0.0010801330208778381,0.019763998687267303,0.03147599846124649,0.013175999745726585,-11.62354151563645,28.06951383650463,417.2848598800598
1650247366667313798,33.96012878417969,44.79,36.29997253417969,8.684720993041992,13.554220199584961,329.2307286193338,65.62570063991146,278.148290231942,329.20998874991903,65.74660181840984,278.14955381693846,0.0017935670912265778,-0.0005629286170005798,-0.00046945735812187195,0.02000799961388111,0.031964000314474106,0.01512799970805645,-11.61668959142686,28.074632018184612,417.2827441736189
1650247366784847907,34.084590911865234,44.79,36.30473709106445,8.475446701049805,13.467267990112305,329.28341328349666,65.60255995900346,278.15296891152343,329.28745675548527,65.58866052404248,278.1529962322801,0.00118294358253479,0.0006584599614143372,-0.000469207763671875,0.021715998649597168,0.030988000333309174,0.013907999731600285,-11.610686118461269,28.079116134009414,417.28089086709844
1650247366907256869,34.066810607910156,44.79,36.49306869506836,8.537737846374512,13.975342750549316,329.3357291174444,65.44726877803404,278.1576066099699,329.32468811665103,65.44585492887585,278.1575997797807,-3.884732723236084e-05,0.0027960538864135742,-0.0016910508275032043,0.019763998687267303,0.029767999425530434,0.011223999783396721,-11.604744130623939,28.083554051216332,417.2790569267349
1650247367029584332,34.13793182373047,44.303,36.64554214477539,8.662153244018555,13.677645683288574,329.2265553737509,65.51576191503092,278.15533898716546,329.1865748614442,65.54883369099213,278.1560220060824,-0.0009551495313644409,0.00035233795642852783,-0.0016907770186662674,0.019763998687267303,0.03001200035214424,0.014151999726891518,-11.59858180564518,28.088156244645436,417.2771553863102
1650247367155992976,33.96012878417969,43.816,36.32563781738281,8.780274391174316,14.335102081298828,329.2733933959842,65.52649897240619,278.1560151758933,329.237046544316,65.53906652047901,278.15624740232505,-0.0015660785138607025,-0.0014805831015110016,0.0007527023553848267,0.01878799870610237,0.030499998480081558,0.016835998743772507,-11.592432415010327,28.09274848631723,417.275258248224
1650247367282544524,34.04903030395508,44.303,36.5689697265625,9.030940055847168,14.278549194335938,329.2082402214915,65.4562504767926,278.1598127610718,329.20874224039545,65.46096330731991,278.15982642145013,-0.0009550675749778748,4.6409666538238525e-05,-0.0007744953036308289,0.022447999566793442,0.030499998480081558,0.014639999717473984,-11.586068962778995,28.09750027795485,417.2732955027761
1650247367416641182,34.04903030395508,44.79,36.78287124633789,9.086150169372559,14.03150749206543,329.13399948030803,65.46200149607375,278.16351472360196,329.1769716154712,65.35088797865599,278.16587796905475,0.0027096495032310486,-0.0002593323588371277,0.001057986170053482,0.02000799961388111,0.029767999425530434,0.013663999736309052,-11.57970596212163,28.102251420422924,417.2713333364319
1650247367551203740,34.084590911865234,44.79,36.43471145629883,8.932723999023438,14.189797401428223,329.18541714437987,65.44232372107496,278.1663014407833,329.16941059605995,65.51607610373274,278.1668956672411,0.0024038217961788177,0.0018785744905471802,-0.0019962191581726074,0.02025200054049492,0.032207999378442764,0.012931999750435352,-11.572959891025201,28.10728825449378,417.26925352255756
1650247367685727688,33.96012878417969,45.277,36.59620666503906,9.11589241027832,13.81354808807373,329.12532855515667,65.66847811468324,278.16695713894364,329.09915868535177,65.79666710502605,278.16863736547947,-3.9521604776382446e-05,0.0012677684426307678,0.0010581500828266144,0.02025200054049492,0.031231999397277832,0.010979999788105488,-11.566189052712552,28.11234322845798,417.2671665701415
1650247367816614116,34.03125,44.79,36.43605422973633,9.140899658203125,14.478947639465332,329.0440117379931,65.96679345687272,278.1674489125639,329.1221627624764,65.8863269982608,278.1705224976904,0.0008770748972892761,-0.0008699968457221985,-0.001996109262108803,0.02025200054049492,0.030988000333309174,0.011711999773979187,-11.559416891816698,28.11739883722069,417.265079708387
1650247367935361078,34.066810607910156,44.79,36.27980041503906,9.16695785522461,14.085816383361816,329.1114530258578,65.9217893404315,278.1705703090146,329.12184857377457,66.00603289365445,278.17014000709685,-3.959238529205322e-05,-0.00025895237922668457,-0.0019962191581726074,0.020983999595046043,0.030988000333309174,0.014639999717473984,-11.552832638373046,28.122313829900875,417.26305122874544
1650247368053603769,34.04903030395508,45.277,36.2174186706543,8.917949676513672,13.812909126281738,329.12303019650096,65.96874689097534,278.16980532782753,329.14324755644424,65.984401684553,278.1696414032874,0.00026603788137435913,-0.001480747014284134,-0.0010798778384923935,0.02000799961388111,0.030743999406695366,0.013663999736309052,-11.546721937350126,28.12687502881714,417.26116906291276
1650247368179703677,34.03125,44.79,36.33631134033203,9.215829849243164,13.334792137145996,329.09061753379467,66.0613915768774,278.169463818369,329.0634777771277,66.04247878306563,278.16920427118055,0.006679166108369827,0.0015735328197479248,-0.0016904696822166443,0.02025200054049492,0.0302559994161129,0.014151999726891518,-11.540926518841781,28.13120062723965,417.25938438273806
1650247368314216588,34.084590911865234,44.79,36.4130859375,8.795308113098145,13.626982688903809,329.0125757923381,66.17634366060871,278.16968238442246,329.0117698300161,66.15197354565011,278.16968238442246,-0.0003455616533756256,0.000657297670841217,0.00014204345643520355,0.02000799961388111,0.030743999406695366,0.012443999759852886,-11.534563552294602,28.135949536862686,417.2574253485094
1650247368448191488,34.066810607910156,44.303,36.545692443847656,8.878654479980469,13.864712715148926,328.99661705534237,66.19919064338241,278.17296770541327,329.025085283803,66.18014124578724,278.1732272526017,0.0030139386653900146,0.0012679621577262878,-0.0013853870332241058,0.020495999604463577,0.03171999752521515,0.013663999736309052,-11.527798905495434,28.140997894511084,417.25534312748664
1650247368582593531,34.01346969604492,44.79,36.49154281616211,8.934065818786621,13.902419090270996,329.0170222454878,66.17059264132756,278.1712191769857,329.0147682830617,66.19412264301826,278.1712396675532,-0.001567404717206955,0.0006569921970367432,-0.0010798592120409012,0.018300000578165054,0.030499998480081558,0.015615999698638916,-11.521055579623814,28.14602999181451,417.2532679644771
1650247368717272384,34.04903030395508,44.303,36.833621978759766,9.04432201385498,14.136465072631836,329.05555134259583,66.19845298295205,278.17520117727184,329.06659917357837,66.14302599783738,278.1755085357845,-0.001567341387271881,4.556030035018921e-05,0.00014186464250087738,0.01878799870610237,0.030743999406695366,0.013419999741017818,-11.514294277014889,28.151075154516416,417.2511877658768
1650247368851659963,33.995689392089844,44.303,36.719608306884766,8.967503547668457,13.881476402282715,329.0848801748919,66.12761026088067,278.17572027164874,329.07824123101864,66.11547301472555,278.1756929508921,0.0036245137453079224,-0.000870630145072937,-0.0007744170725345612,0.021959999576210976,0.0302559994161129,0.014639999717473984,-11.507514393002507,28.156133831212426,417.24910234974726
1650247368982027566,34.03125,44.303,36.74162292480469,8.75920581817627,14.058788299560547,329.03732498279567,66.10171701373716,278.1764306113224,329.0509785309465,66.01021979961565,278.1770521585369,-0.0006516836583614349,0.0009617134928703308,-0.0007746294140815735,0.019519999623298645,0.03147599846124649,0.013175999745726585,-11.500755629435337,28.161176399588502,417.2470239277072
1650247369104359382,33.94234848022461,44.79,36.89828872680664,8.80155086517334,14.077987670898438,329.08508508056696,65.95725168260222,278.1769087245643,329.0909795338207,65.91797126468546,278.1770384981586,-0.0006516389548778534,0.0006560683250427246,-0.00016390159726142883,0.02122800052165985,0.031231999397277832,0.01439599972218275,-11.494194966863331,28.16607083532382,417.2450069000471
1650247369226768049,34.12015151977539,45.277,36.57706832885742,8.884724617004395,14.072832107543945,329.05265534238777,65.80511604902935,278.1780903472908,329.05111854982454,65.82830454126155,278.17811083785824,0.003624100238084793,-0.0002601519227027893,-0.001996302977204323,0.02000799961388111,0.031231999397277832,0.013419999741017818,-11.488038785201573,28.17066321831264,417.2431146529707
1650247369352969770,33.90678787231445,44.303,36.49250411987305,8.735657691955566,13.923529624938965,329.10426766685094,65.80497261505678,278.1803374795277,329.1202537246034,65.78224857568814,278.1805150644461,0.0020964927971363068,0.0009608864784240723,0.002279568463563919,0.01903199963271618,0.031231999397277832,0.014883999712765217,-11.481880093646561,28.175257184340524,417.2412220470626
1650247369470114478,34.01346969604492,44.303,36.67193603515625,9.018289566040039,13.988296508789062,329.184256012221,65.77388842414405,278.1822909136303,329.18729203130704,65.74174555390996,278.1823318947653,0.001180104911327362,4.4465065002441406e-05,-0.00016382336616516113,0.019276000559329987,0.03269600123167038,0.015371999703347683,-11.475397425935013,28.180092502218677,417.23923032709473
1650247369596484308,33.977909088134766,44.303,36.951229095458984,9.153239250183105,13.751007080078125,329.2115904292794,65.84741541055924,278.18276219668303,329.19538922056813,65.75605480022115,278.1820177060635,-4.2222440242767334e-05,-0.001482408493757248,-0.0004690084606409073,0.019763998687267303,0.031231999397277832,0.013907999731600285,-11.46963192504343,28.1843926278581,417.2374593320986
1650247369722948673,34.01346969604492,44.79,36.78555679321289,9.0240478515625,13.884040832519531,329.1846385028145,65.74634910141056,278.1826938947913,329.2192812222848,65.76979031064204,278.1822977438195,0.0002630762755870819,-0.0017879605293273926,-0.0004687868058681488,0.02000799961388111,0.032207999378442764,0.014883999712765217,-11.463273312266647,28.189134824970427,417.23550656988544
1650247369857397104,34.03125,44.79,36.82182693481445,9.052154541015625,14.383100509643555,329.26197331969195,65.80914586063966,278.182960272169,329.2518304887745,65.80341533192602,278.1829261212231,-0.0009588897228240967,-0.0002608746290206909,-0.0013847611844539642,0.020495999604463577,0.029767999425530434,0.013419999741017818,-11.456908811558925,28.19388110516036,417.2335524402108
1650247369991973977,33.995689392089844,44.303,36.70862579345703,9.095959663391113,14.361958503723145,329.2285736946506,65.69703513560307,278.18385502695025,329.2381940160966,65.79080680271817,278.183404234465,-4.285573959350586e-05,0.0006552785634994507,-0.0016899462789297104,0.02122800052165985,0.031231999397277832,0.013663999736309052,-11.450139584353531,28.19892886916904,417.2314745289764
1650247370126344520,33.995689392089844,44.79,36.68308639526367,9.016374588012695,14.238263130187988,329.2294445437698,65.84830333515134,278.1836637816535,329.24712790353095,65.8985598670643,278.1832129891683,-0.0006534159183502197,4.4323503971099854e-05,0.0010587573051452637,0.02025200054049492,0.0302559994161129,0.012443999759852886,-11.443369740157731,28.20397674500211,417.2293969273669
1650247370256763493,34.01346969604492,44.303,36.68524932861328,9.101284980773926,14.206860542297363,329.174833766261,65.8715464688969,278.1815464230108,329.13437172561777,65.85930676990424,278.18130053620064,-0.0009592361748218536,0.00034968554973602295,-0.001384710893034935,0.02000799961388111,0.029523998498916626,0.01439599972218275,-11.436607029580948,28.209018954230128,417.2273220132994
1650247370379185104,34.084590911865234,44.79,36.76509475708008,9.196693420410156,14.430400848388672,329.0842825333395,65.80174876576854,278.178500158641,329.08821330720684,65.78342336822539,278.17852747939764,-0.0009593404829502106,0.0006551593542098999,-0.0004683956503868103,0.018543999642133713,0.03001200035214424,0.013907999731600285,-11.430043962056581,28.213911979754545,417.22530882936223
1650247370501357460,33.96012878417969,45.277,36.63908386230469,9.321057319641113,14.233262062072754,329.0967578738585,65.90377130140101,278.1814234796057,329.0714861739295,65.89617613104396,278.18132785695735,0.003621857613325119,0.0009600520133972168,-0.0016894936561584473,0.019763998687267303,0.030743999406695366,0.012199999764561653,-11.423881313436667,28.21850617983054,417.22341889877777
1650247370619468988,34.03125,45.277,37.049259185791016,9.222840309143066,14.548062324523926,329.07267462684507,65.97760564632885,278.1819767249285,329.0198670192771,66.10912093879745,278.18550793272937,0.0017890222370624542,-0.000261649489402771,-0.0022998005151748657,0.019519999623298645,0.031231999397277832,0.01195599976927042,-11.41773271373427,28.223089619717516,417.2215336889618
1650247370735812579,34.066810607910156,44.303,36.61174392700195,8.81359577178955,14.721465110778809,329.07499006097373,66.19355573731714,278.187543329102,329.0859627598753,66.12708433631458,278.1878984989389,-0.00034919753670692444,0.0015705451369285583,0.0019757598638534546,0.019519999623298645,0.030743999406695366,0.013907999731600285,-11.411781370024519,28.227525743500493,417.2197093516728
1650247370851218925,33.92456817626953,45.764,36.81346130371094,9.168457984924316,14.698482513427734,329.08953494881126,66.11220135411313,278.189066461287,329.08567930702475,66.07688244591499,278.1889913292061,0.0011777281761169434,0.0018759146332740784,-0.0007730890065431595,0.02025200054049492,0.030499998480081558,0.013419999741017818,-11.405843075445583,28.23195187326076,417.2178893991434
1650247370977913083,34.10237121582031,45.277,36.69179153442383,9.123493194580078,14.261737823486328,329.1301609139945,66.01746663032505,278.18716083850853,329.11620683752017,65.98869104335178,278.18694910264423,0.0030095241963863373,-0.0008728653192520142,-0.000772891566157341,0.02025200054049492,0.0302559994161129,0.01268799975514412,-11.400153338129604,28.23619248970098,417.21614598425407
1650247371104221062,34.066810607910156,44.79,36.5427360534668,9.462080001831055,14.275944709777832,329.0640412677342,65.87914163925394,278.18351351749175,329.1233443852028,65.87258465765073,278.18369793259933,0.0011768415570259094,0.0015706047415733337,-0.0007726438343524933,0.020495999604463577,0.029279999434947968,0.015371999703347683,-11.393742290575938,28.240970412406284,417.2141819725773
1650247371226522361,34.04903030395508,44.303,36.415122985839844,9.404491424560547,14.180333137512207,329.11964242267265,65.90452945239889,278.1826187627105,329.11369674300016,65.8703170348463,278.1825231400621,0.0008715055882930756,-0.0017887353897094727,0.0019761137664318085,0.02000799961388111,0.03147599846124649,0.01195599976927042,-11.387389378546025,28.245704702469354,417.2122362125065
1650247371348750382,34.10237121582031,44.303,36.291046142578125,9.191246032714844,14.29712200164795,329.075966778025,65.80393442630293,278.17865725299185,329.0767146837391,65.7638548762533,278.17866408318105,-0.0015718117356300354,4.407763481140137e-05,0.0001433826982975006,0.02000799961388111,0.029279999434947968,0.013419999741017818,-11.381234033383006,28.250291471925365,417.2103513825477
1650247371475021529,34.084590911865234,44.303,36.493255615234375,8.931218147277832,14.207257270812988,329.05353985188526,65.8995160935481,278.1734116677093,329.10067157225296,65.83152839054979,278.17498944140755,-0.0030987486243247986,-0.000260964035987854,-0.0016892235726118088,0.019519999623298645,0.03171999752521515,0.01268799975514412,-11.375081111632506,28.2548761498003,417.2084677074581
1650247371601386377,33.995689392089844,45.277,36.47053909301758,9.097929000854492,14.857613563537598,329.13725406544756,65.86222326067983,278.171389931715,329.1281118572435,65.90723420731021,278.1715948373901,-0.0009609535336494446,0.0012656226754188538,0.00014339014887809753,0.02000799961388111,0.030743999406695366,0.011711999773979187,-11.368725491223145,28.259611563171084,417.20652241094484
1650247371727548748,33.995689392089844,45.277,36.560665130615234,9.051070213317871,14.896387100219727,329.1197073094698,65.97748953311296,278.17082302601386,329.18492195566506,65.95058541797228,278.17168362984927,-4.450976848602295e-05,0.0027922838926315308,-0.0004671495407819748,0.02000799961388111,0.031231999397277832,0.014151999726891518,-11.36236237175601,28.264352258950158,417.20457526039826
1650247371861967217,34.066810607910156,45.277,36.46280288696289,9.248992919921875,14.733811378479004,329.2232085810576,65.8117549929026,278.1759866490264,329.230216355146,65.80458329427408,278.1760207999722,-0.0015720129013061523,0.0003487244248390198,-0.0010778941214084625,0.021715998649597168,0.030988000333309174,0.015859998762607574,-11.356010277448185,28.2690844365472,417.2026319240167
1650247371996407148,34.01346969604492,44.79,36.37428665161133,9.270458221435547,14.728775978088379,329.1855981443929,65.78562268913814,278.1777420076431,329.1852463896506,65.77972140569524,278.17772151707555,0.0020923204720020294,-0.002705436199903488,0.0004495922476053238,0.020495999604463577,0.030988000333309174,0.014883999712765217,-11.349246511090355,28.274122967391342,417.2005631259732
1650247372130962856,34.03125,45.277,36.32769775390625,9.606694221496582,14.533538818359375,329.13726431073127,65.87321303505438,278.1793539322872,329.13192651789495,65.8171508423469,278.1792173285038,0.0008706077933311462,0.000654079020023346,0.0007554013282060623,0.020495999604463577,0.031231999397277832,0.01512799970805645,-11.34247951125045,28.27916356262826,417.19849383829535
1650247372252440852,34.01346969604492,44.303,36.18672180175781,9.152878761291504,14.417939186096191,329.1878486917244,65.80122284120245,278.17985936628577,329.17346772842694,65.83522352289077,278.1801052530959,0.0005652457475662231,-0.0014837123453617096,-0.0004661343991756439,0.02025200054049492,0.030499998480081558,0.013907999731600285,-11.335417753913699,28.284423349520928,417.1963349490934
1650247372381878359,34.12015151977539,45.277,36.342350006103516,8.822395324707031,14.283763885498047,329.14586010380174,65.82068888033697,278.17871872469436,329.1366461786114,65.83163767357651,278.1787665360186,0.0008707493543624878,-0.0005670040845870972,-0.0010768566280603409,0.020495999604463577,0.03147599846124649,0.011711999773979187,-11.329619701921409,28.288741614662094,417.19456280104356
1650247372516269254,34.066810607910156,44.79,36.43819808959961,9.349647521972656,14.560636520385742,329.12641114014014,65.82809280539728,278.1780288755882,329.1567303498658,65.78345068898207,278.1786982341269,0.0030084364116191864,-0.002094130963087082,-0.001076865941286087,0.02147199958562851,0.031231999397277832,0.014639999717473984,-11.323074184863204,28.293616272589386,417.1925626345157
1650247372645844740,34.10237121582031,43.816,36.502655029296875,9.335835456848145,14.353326797485352,329.17558508706963,65.89102616840977,278.18030332858183,329.1747483888963,65.79452242562665,278.18024868706846,-0.00035148486495018005,-0.0002612993121147156,0.002588033676147461,0.019763998687267303,0.030743999406695366,0.015371999703347683,-11.316303629289262,28.298658185839233,417.1904941930899
1650247372766109199,34.066810607910156,45.277,36.58735656738281,9.390398979187012,14.51196002960205,329.17262420006443,65.72077687315803,278.18273487592637,329.20720203273765,65.73295510044817,278.1825231400621,-0.0021836236119270325,-0.00026151537895202637,-0.001382550224661827,0.02000799961388111,0.03147599846124649,0.012931999750435352,-11.309814384717354,28.30349028926456,417.1885121632433
1650247372892740081,34.03125,44.79,36.384952545166016,9.168252944946289,14.316572189331055,329.23168826091216,65.84303042911209,278.18080193239126,329.2954514919088,65.84779790115276,278.18064483804034,0.0002596750855445862,0.0009599179029464722,-0.0007715150713920593,0.01903199963271618,0.0302559994161129,0.012931999750435352,-11.30373046386081,28.308020288914392,417.18665435014407
1650247373019801087,34.03125,44.79,36.4708366394043,9.108283042907715,14.527620315551758,329.3687189311355,65.79728182205135,278.18251630987294,329.3779431016096,65.7031344945319,278.182960272169,0.0014813989400863647,0.0018760263919830322,0.00014490261673927307,0.020983999595046043,0.031231999397277832,0.013907999731600285,-11.297354347562202,28.312767555710554,417.1847077445765
1650247373150766811,34.12015151977539,45.764,36.41439437866211,9.182677268981934,14.854850769042969,329.2998057375047,65.67478920947633,278.18125272487646,329.2910460198941,65.67104626581117,278.1812254041198,0.00087008997797966,-0.0011780932545661926,-0.0016871113330125809,0.02025200054049492,0.030499998480081558,0.016103999689221382,-11.290957590579428,28.31752988468283,417.18275528349335
1650247373269316333,34.084590911865234,43.816,36.432945251464844,9.09642219543457,14.80807876586914,329.2598593761439,65.63220298000131,278.1822294419278,329.26183671590854,65.63944981071069,278.1822226117386,-0.0009621530771255493,4.369765520095825e-05,-0.0022975485771894455,0.018300000578165054,0.030743999406695366,0.014639999717473984,-11.284364127988237,28.32243833907559,417.18074325021456
1650247373386929221,34.084590911865234,44.303,36.37559509277344,9.117008209228516,14.836119651794434,329.25113722457377,65.67473456796297,278.1838755175178,329.23325920442124,65.71253283482983,278.1842170269763,-0.0027944743633270264,-0.0005674436688423157,-0.0013811346143484116,0.019519999623298645,0.030743999406695366,0.013663999736309052,-11.278395477918517,28.326881376323,417.17892229147105
1650247373514365536,34.066810607910156,44.303,36.287574768066406,9.317261695861816,14.701057434082031,329.3228268901022,65.6875070217109,278.1872154800219,329.28743968001237,65.65737222709281,278.1866827252666,-0.00218384712934494,0.0015700533986091614,0.0004513002932071686,0.02122800052165985,0.030499998480081558,0.014883999712765217,-11.272504177126097,28.331266574264095,417.1771253125408
1650247373644110853,34.03125,44.303,36.60343551635742,9.1993989944458,14.23643970489502,329.2925110954711,65.49961534783301,278.18628657429474,329.29678679389156,65.42187413469993,278.18645049883486,-0.0009622499346733093,0.0006536394357681274,0.00014596059918403625,0.020739998668432236,0.02903600037097931,0.015371999703347683,-11.26591625821656,28.336169994148506,417.1751162984264
1650247373762632986,34.04903030395508,44.79,36.5318717956543,9.086908340454102,14.242562294006348,329.21458546723045,65.39780454806481,278.18604068748465,329.23690311034346,65.36566167783073,278.1864026875106,0.00025939568877220154,4.273653030395508e-05,0.0013675522059202194,0.019519999623298645,0.031231999397277832,0.015371999703347683,-11.259554910282363,28.340904469030882,417.17317682800467
1650247373884908322,34.03125,43.816,36.4026985168457,9.113390922546387,14.028654098510742,329.2774436981621,65.46280062820665,278.18392332884196,329.27415837717126,65.42957858808371,278.1838618571394,-0.0006567277014255524,-0.0005678385496139526,-0.0010755863040685654,0.02147199958562851,0.0302559994161129,0.01512799970805645,-11.253557702741928,28.345367653881908,417.17134878286896
1650247374007412192,34.084590911865234,44.79,36.7203483581543,9.018072128295898,14.023109436035156,329.26010526295397,65.35562812993997,278.1823523853328,329.25022539431956,65.46907074186473,278.18289880046643,-0.001267366111278534,0.0018756836652755737,0.0007571298629045486,0.020495999604463577,0.03147599846124649,0.012443999759852886,-11.247398124158462,28.3499513981383,417.16947165349677
1650247374133863207,34.10237121582031,44.79,36.82484436035156,9.15460205078125,13.793188095092773,329.229311355081,65.41906692695106,278.18137566828153,329.2414383559523,65.47012942118607,278.1810683097689,-0.0009621940553188324,0.0021808817982673645,-0.0013805776834487915,0.02147199958562851,0.030988000333309174,0.014151999726891518,-11.241226167292519,28.35454407065915,417.1675911676669
1650247374260241001,33.977909088134766,45.764,36.51129913330078,8.916266441345215,13.70107364654541,329.1610333690429,65.51544772632911,278.1815395928216,329.1149808185641,65.55612150283653,278.1825026494946,-4.542246460914612e-05,-0.00026260316371917725,-0.0004642121493816376,0.02025200054049492,0.031231999397277832,0.014151999726891518,-11.234866048536768,28.359276461668152,417.1656537877629
1650247374427377203,34.03125,44.303,36.50836181640625,9.005059242248535,14.101133346557617,329.13529380115574,65.5536694649245,278.180754121067,329.1267833854499,65.56757573007465,278.1808155927696,-0.0037098489701747894,0.0003480836749076843,0.0022845417261123657,0.020983999595046043,0.030988000333309174,0.012931999750435352,-11.22836227218631,28.364115433446145,417.1636731049818
1650247374553626777,34.066810607910156,44.79,36.15555191040039,8.92146110534668,14.677674293518066,329.0964983266701,65.64339082986179,278.17950419644893,329.1120882334506,65.591775090304,278.1799003474208,-0.0015718266367912292,-0.0014842860400676727,-0.0016862992197275162,0.020495999604463577,0.02903600037097931,0.015615999698638916,-11.220079605004583,28.370277489530892,417.1611513419106
1650247374688051802,34.03125,45.764,36.17618942260742,8.768488883972168,14.669509887695312,329.0760350799167,65.66972120911218,278.17950419644893,329.0156732831267,65.69958279616348,278.1804194417977,0.0036201588809490204,-0.0017894282937049866,0.001978909596800804,0.020495999604463577,0.030743999406695366,0.013663999736309052,-11.213729583423689,28.375001370407826,417.1592185051916
1650247374822550289,33.995689392089844,43.816,36.35438537597656,9.01416015625,14.899712562561035,329.0650009093126,65.84099503273943,278.17579540372964,329.0737606269231,65.92322368015721,278.1754402338928,0.0005661807954311371,-0.001178346574306488,-0.0004643835127353668,0.019519999623298645,0.0302559994161129,0.013663999736309052,-11.206957123116826,28.38003918053232,417.1571575712692
1650247374956913019,34.066810607910156,44.303,36.27370071411133,9.14461612701416,14.650223731994629,329.1346961596034,65.8623871852199,278.17841136618176,329.1200898000633,65.86096650587254,278.17839087561424,0.0002611018717288971,0.0003487244248390198,-0.00015908852219581604,0.019763998687267303,0.030988000333309174,0.012931999750435352,-11.200187119935661,28.385074823132236,417.15509788632835
1650247375072647583,34.066810607910156,44.79,36.25728988647461,8.92568302154541,14.25748062133789,329.1530318024303,65.85572092058997,278.17653306415997,329.1475676510943,65.86696341196381,278.1765535547275,0.003315448760986328,-0.0008727908134460449,0.00014653801918029785,0.01903199963271618,0.032207999378442764,0.01439599972218275,-11.193285923131862,28.390207700378795,417.1529988033371
1650247375188228669,34.04903030395508,44.303,36.240596771240234,8.996922492980957,14.475339889526367,329.17615540786534,65.73788649702891,278.1767106490784,329.203438598505,65.81348986095179,278.1756861207029,-0.0009602531790733337,-0.0005673468112945557,0.0013682562857866287,0.02000799961388111,0.029523998498916626,0.00951599981635809,-11.187621379741426,28.394420533150058,417.1512762527694
1650247375310463043,34.15571212768555,44.79,36.24275207519531,9.169149398803711,14.47938060760498,329.2148211087568,65.89390850823952,278.17911487566624,329.22760380778846,65.8595185057685,278.17932661153054,-0.0012657679617404938,0.002181500196456909,-0.0010751895606517792,0.019763998687267303,0.03001200035214424,0.015615999698638916,-11.18176992426914,28.39877212691517,417.14949723200715
1650247375432687566,33.995689392089844,44.79,36.306053161621094,9.601372718811035,14.288461685180664,329.24619216761465,65.85389726008158,278.1783567246684,329.2247726943775,65.94380304012645,278.17931978134135,-4.3764710426330566e-05,-0.00026175379753112793,-0.00015882402658462524,0.01878799870610237,0.0302559994161129,0.017324000597000122,-11.175614762933158,28.4033493066472,417.147626279634
1650247375550813743,34.084590911865234,44.303,36.350440979003906,9.259111404418945,14.547795295715332,329.24469977128103,65.91805322695551,278.18198355511765,329.22653146808875,66.00998757318388,278.1828373287639,-0.001265496015548706,-0.0011780709028244019,0.0010626912117004395,0.02147199958562851,0.030499998480081558,0.012443999759852886,-11.169460618058732,28.407925450695465,417.14575605061407
1650247375677121964,33.94234848022461,44.79,36.38079833984375,9.229334831237793,14.252410888671875,329.23364169501474,65.91849035906239,278.1882400083974,329.21534020313374,66.01713878124488,278.18915525374615,0.00026103854179382324,0.0021813735365867615,0.0013682171702384949,0.020983999595046043,0.030988000333309174,0.010247999802231789,-11.16351145563611,28.41234890659817,417.14394850916085
1650247375803488906,33.995689392089844,44.303,36.458045959472656,9.091507911682129,14.436074256896973,329.0727804947772,66.3034398206843,278.1966411410765,329.1427250469727,66.27754657354079,278.1975290656686,-0.0009609498083591461,0.00034843385219573975,0.0016732029616832733,0.02147199958562851,0.030988000333309174,0.012443999759852886,-11.157145305559721,28.417082121375643,417.1420147027934
1650247375938148798,34.01346969604492,44.303,36.49004364013672,8.95676040649414,13.778169631958008,329.13996565054805,66.28472510235848,278.2044753680545,329.130683423466,66.27721872446062,278.20444121710864,0.0008714832365512848,0.0003482252359390259,-0.000159531831741333,0.02025200054049492,0.029767999425530434,0.011467999778687954,-11.150786058319607,28.421809905576296,417.14008343607094
1650247376072565954,33.96012878417969,44.79,36.25840377807617,9.068253517150879,13.731332778930664,329.134921555846,66.4529731521834,278.2042089906769,329.1476427831751,66.3961664688564,278.2045709907029,-0.000655636191368103,-0.0005679875612258911,0.0019784364849328995,0.020495999604463577,0.030988000333309174,0.012931999750435352,-11.1440016391702,28.426853455433612,417.1380235350964
1650247376199422259,34.066810607910156,44.79,36.32731246948242,9.18710994720459,14.446410179138184,329.10057253451,66.4279405088753,278.2070093682366,329.13128106501836,66.46207096415786,278.2064766134813,0.0008710063993930817,0.0006539076566696167,-0.0007703620940446854,0.019763998687267303,0.030988000333309174,0.018543999642133713,-11.137233477886916,28.431884581466495,417.13596907240463
1650247376321715522,34.03125,44.303,36.3630256652832,9.329533576965332,14.340940475463867,329.2480465639743,66.28509393257366,278.2095092174728,329.2532989794461,66.23520623087587,278.20963899106704,0.0023978054523468018,-0.0014840401709079742,0.0013675782829523087,0.021715998649597168,0.0302559994161129,0.015859998762607574,-11.130845368378505,28.436632886060988,417.13403043375905
1650247376439699053,34.04903030395508,44.303,36.52089309692383,8.851947784423828,14.262821197509766,329.2869308309192,66.16756003733607,278.2080338966121,329.31236304029375,66.1013618439003,278.20886717969086,-4.591792821884155e-05,-0.000873170793056488,0.001672668382525444,0.02025200054049492,0.030499998480081558,0.01439599972218275,-11.124555023198988,28.44130822886805,417.1321219008415
1650247376565906332,33.92456817626953,43.816,36.52113723754883,9.215293884277344,14.198646545410156,329.32744409798113,66.030642065234,278.2118314817906,329.3259551167421,66.04275199063244,278.21184514216895,0.002702329307794571,-0.00026244670152664185,-0.002297859638929367,0.019763998687267303,0.03171999752521515,0.011711999773979187,-11.118742065823358,28.445628491368446,417.13035859579213
1650247376692511771,34.01346969604492,44.303,36.35748291015625,9.063758850097656,15.125778198242188,329.3354832306342,66.10415539127085,278.2124120478701,329.3103208137319,66.16459573523629,278.21316336867875,-0.000962480902671814,-0.0008732974529266357,-0.0007708091288805008,0.020983999595046043,0.029523998498916626,0.012443999759852886,-11.112386109596555,28.450352033392342,417.12843100074093
1650247376826901482,34.10237121582031,44.303,36.58778762817383,9.030436515808105,14.916987419128418,329.1887639370732,66.14773199817553,278.21050642509164,329.2316506948717,66.08198459722499,278.21191344406066,0.00025949254631996155,0.0003485679626464844,0.001061929389834404,0.020495999604463577,0.03001200035214424,0.013663999736309052,-11.106009153336146,28.455090884012794,417.12649748157304
1650247376961510227,34.066810607910156,44.79,36.672325134277344,8.91344928741455,14.716668128967285,329.23352558179886,65.9294869636261,278.2116334063047,329.21843086373315,65.91939194403284,278.2115446138455,-4.595145583152771e-05,-0.0005676448345184326,-0.0004652421921491623,0.019519999623298645,0.030743999406695366,0.014639999717473984,-11.099239971496337,28.46012087941017,417.1244455253839
1650247377095868995,34.10237121582031,43.816,36.685020446777344,9.029468536376953,14.547767639160156,329.2782940567137,65.87496839367107,278.2123164252217,329.26544305579034,65.89011775325015,278.2124257082484,0.0005647540092468262,-0.0002621486783027649,-0.00015981867909431458,0.020495999604463577,0.030988000333309174,0.014883999712765217,-11.092460051669532,28.465158517289076,417.1223908173246
1650247377226459634,33.995689392089844,44.303,36.55222702026367,9.086801528930664,14.359885215759277,329.2689537730237,65.8244181636238,278.21217299124913,329.2820643211356,65.75762574373024,278.212610123356,0.0036184079945087433,-0.0002621114253997803,0.001978328451514244,0.020495999604463577,0.0302559994161129,0.015371999703347683,-11.085692312374793,28.47018676900182,417.12034030292756
1650247377348834914,34.10237121582031,43.816,36.368099212646484,9.045047760009766,14.709012031555176,329.16530906746334,65.7875419722949,278.2128013686528,329.16558910521934,65.85041386360487,278.2127877082744,-0.0018793605268001556,0.00034853070974349976,-0.0004651937633752823,0.018055999651551247,0.029767999425530434,0.01268799975514412,-11.079113963527698,28.475073987341034,417.1183476517513
